{
"type": "FeatureCollection",
"name": "Hospitals_ohio",
"crs": { "type": "name", "properties": { "name": "urn:ogc:def:crs:OGC:1.3:CRS84" } },
"features": [
{ "type": "Feature", "properties": { "ID": "0014244266", "NAME": "UH PORTAGE - ROBINSON MEMORIAL HOSPITAL", "STATE": "OH", "BEDS": 302 }, "geometry": { "type": "Point", "coordinates": [ -81.249, 41.1761 ] } },
{ "type": "Feature", "properties": { "ID": "0017545409", "NAME": "MIAMI VALLEY HOSPITAL", "STATE": "OH", "BEDS": 883 }, "geometry": { "type": "Point", "coordinates": [ -84.1859, 39.7449 ] } },
{ "type": "Feature", "properties": { "ID": "0014044481", "NAME": "ST JOSEPH HEALTH CENTER", "STATE": "OH", "BEDS": 219 }, "geometry": { "type": "Point", "coordinates": [ -80.7772, 41.2309 ] } },
{ "type": "Feature", "properties": { "ID": "0002944482", "NAME": "TRUMBULL MEMORIAL HOSPITAL", "STATE": "OH", "BEDS": 346 }, "geometry": { "type": "Point", "coordinates": [ -80.7988, 41.2359 ] } },
{ "type": "Feature", "properties": { "ID": "0009344221", "NAME": "EDWIN SHAW REHABILITATION INSTITUTE", "STATE": "OH", "BEDS": 139 }, "geometry": { "type": "Point", "coordinates": [ -81.4774, 41.1321 ] } },
{ "type": "Feature", "properties": { "ID": "0123344484", "NAME": "STEWARD HILLSIDE REHABILITATION HOSPITAL", "STATE": "OH", "BEDS": 69 }, "geometry": { "type": "Point", "coordinates": [ -80.7325, 41.2508 ] } },
{ "type": "Feature", "properties": { "ID": "0125744501", "NAME": "SELECT SPECIALTY HOSPITAL - YOUNGSTOWN", "STATE": "OH", "BEDS": 31 }, "geometry": { "type": "Point", "coordinates": [ -80.6584, 41.1139 ] } },
{ "type": "Feature", "properties": { "ID": "0125045863", "NAME": "RIDGEVIEW HOSPITAL", "STATE": "OH", "BEDS": 86 }, "geometry": { "type": "Point", "coordinates": [ -84.479, 40.8774 ] } },
{ "type": "Feature", "properties": { "ID": "0012545701", "NAME": "O'BLENESS MEMORIAL HOSPITAL", "STATE": "OH", "BEDS": 132 }, "geometry": { "type": "Point", "coordinates": [ -82.1154, 39.328 ] } },
{ "type": "Feature", "properties": { "ID": "0001345056", "NAME": "MCCULLOUGH-HYDE MEMORIAL HOSPITAL", "STATE": "OH", "BEDS": 70 }, "geometry": { "type": "Point", "coordinates": [ -84.7415, 39.5126 ] } },
{ "type": "Feature", "properties": { "ID": "0000000094", "NAME": "MERCY MEDICAL CENTER", "STATE": "OH", "BEDS": -999 }, "geometry": { "type": "Point", "coordinates": [ -83.8113, 39.941 ] } },
{ "type": "Feature", "properties": { "ID": "0003643812", "NAME": "COSHOCTON COUNTY MEMORIAL HOSPITAL", "STATE": "OH", "BEDS": 56 }, "geometry": { "type": "Point", "coordinates": [ -81.8478, 40.2708 ] } },
{ "type": "Feature", "properties": { "ID": "0013444820", "NAME": "BUCYRUS COMMUNITY HOSPITAL", "STATE": "OH", "BEDS": 25 }, "geometry": { "type": "Point", "coordinates": [ -82.9766, 40.8153 ] } },
{ "type": "Feature", "properties": { "ID": "0007644833", "NAME": "GALION COMMUNITY HOSPITAL", "STATE": "OH", "BEDS": 50 }, "geometry": { "type": "Point", "coordinates": [ -82.8023, 40.7309 ] } },
{ "type": "Feature", "properties": { "ID": "0027844111", "NAME": "GRACE HOSPITAL AT FAIRVIEW", "STATE": "OH", "BEDS": 29 }, "geometry": { "type": "Point", "coordinates": [ -81.8241, 41.4502 ] } },
{ "type": "Feature", "properties": { "ID": "0001744106", "NAME": "UNIVERSITY HOSPITALS OF CLEVELAND", "STATE": "OH", "BEDS": 1032 }, "geometry": { "type": "Point", "coordinates": [ -81.6051, 41.5061 ] } },
{ "type": "Feature", "properties": { "ID": "0017044195", "NAME": "CLEVELAND CLINIC", "STATE": "OH", "BEDS": 1268 }, "geometry": { "type": "Point", "coordinates": [ -81.6208, 41.5028 ] } },
{ "type": "Feature", "properties": { "ID": "0010144122", "NAME": "UNIVERSITY HOSPITALS AHUJA MEDICAL CENTER", "STATE": "OH", "BEDS": 144 }, "geometry": { "type": "Point", "coordinates": [ -81.4947, 41.4522 ] } },
{ "type": "Feature", "properties": { "ID": "0014344129", "NAME": "PARMA COMMUNITY GENERAL HOSPITAL", "STATE": "OH", "BEDS": 348 }, "geometry": { "type": "Point", "coordinates": [ -81.7314, 41.3821 ] } },
{ "type": "Feature", "properties": { "ID": "0016045331", "NAME": "WAYNE HOSPITAL", "STATE": "OH", "BEDS": 104 }, "geometry": { "type": "Point", "coordinates": [ -84.6347, 40.0893 ] } },
{ "type": "Feature", "properties": { "ID": "0012743015", "NAME": "GRADY MEMORIAL HOSPITAL", "STATE": "OH", "BEDS": 152 }, "geometry": { "type": "Point", "coordinates": [ -83.0893, 40.3055 ] } },
{ "type": "Feature", "properties": { "ID": "0126843016", "NAME": "DUBLIN SPRINGS", "STATE": "OH", "BEDS": 72 }, "geometry": { "type": "Point", "coordinates": [ -83.171, 40.1038 ] } },
{ "type": "Feature", "properties": { "ID": "0129943725", "NAME": "CAMBRIDGE BEHAVORIAL HOSPITAL", "STATE": "OH", "BEDS": 66 }, "geometry": { "type": "Point", "coordinates": [ -81.5821, 40.0669 ] } },
{ "type": "Feature", "properties": { "ID": "0002843725", "NAME": "SOUTHEASTERN OHIO REGIONAL MEDICAL CENTER", "STATE": "OH", "BEDS": 189 }, "geometry": { "type": "Point", "coordinates": [ -81.5774, 40.0415 ] } },
{ "type": "Feature", "properties": { "ID": "0028645224", "NAME": "CHILDREN'S HOSPITAL MC - COLLEGE HILL", "STATE": "OH", "BEDS": 74 }, "geometry": { "type": "Point", "coordinates": [ -84.5439, 39.1926 ] } },
{ "type": "Feature", "properties": { "ID": "0127645236", "NAME": "JEWISH HOSPITAL, LLC", "STATE": "OH", "BEDS": 209 }, "geometry": { "type": "Point", "coordinates": [ -84.3809, 39.206 ] } },
{ "type": "Feature", "properties": { "ID": "0028745219", "NAME": "DRAKE CENTER FOR POST-ACUTE CARE, LLC", "STATE": "OH", "BEDS": 30 }, "geometry": { "type": "Point", "coordinates": [ -84.5104, 39.1213 ] } },
{ "type": "Feature", "properties": { "ID": "0009245220", "NAME": "CINCINNATI VA MEDICAL CENTER", "STATE": "OH", "BEDS": 268 }, "geometry": { "type": "Point", "coordinates": [ -84.5082, 39.1394 ] } },
{ "type": "Feature", "properties": { "ID": "0008043616", "NAME": "BAY PARK COMMUNITY HOSPITAL", "STATE": "OH", "BEDS": 91 }, "geometry": { "type": "Point", "coordinates": [ -83.4805, 41.6212 ] } },
{ "type": "Feature", "properties": { "ID": "0012343560", "NAME": "FLOWER HOSPITAL", "STATE": "OH", "BEDS": 559 }, "geometry": { "type": "Point", "coordinates": [ -83.6913, 41.7089 ] } },
{ "type": "Feature", "properties": { "ID": "0124943560", "NAME": "REGENCY HOSPITAL OF TOLEDO", "STATE": "OH", "BEDS": 45 }, "geometry": { "type": "Point", "coordinates": [ -83.6691, 41.7192 ] } },
{ "type": "Feature", "properties": { "ID": "0009543623", "NAME": "MERCY ST ANNE HOSPITAL", "STATE": "OH", "BEDS": 128 }, "geometry": { "type": "Point", "coordinates": [ -83.6257, 41.6936 ] } },
{ "type": "Feature", "properties": { "ID": "0029545417", "NAME": "RIVERVIEW HEALTH INSTITUTE", "STATE": "OH", "BEDS": 12 }, "geometry": { "type": "Point", "coordinates": [ -84.1994, 39.7482 ] } },
{ "type": "Feature", "properties": { "ID": "0129245342", "NAME": "SYCAMORE MEDICAL CENTER", "STATE": "OH", "BEDS": 108 }, "geometry": { "type": "Point", "coordinates": [ -84.2493, 39.6377 ] } },
{ "type": "Feature", "properties": { "ID": "0006445406", "NAME": "GOOD SAMARITAN HOSPITAL", "STATE": "OH", "BEDS": 491 }, "geometry": { "type": "Point", "coordinates": [ -84.2333, 39.7876 ] } },
{ "type": "Feature", "properties": { "ID": "0013843338", "NAME": "MORROW COUNTY HOSPITAL", "STATE": "OH", "BEDS": 22 }, "geometry": { "type": "Point", "coordinates": [ -82.8504, 40.548 ] } },
{ "type": "Feature", "properties": { "ID": "0005144875", "NAME": "OHIOHEALTH SHELBY HOSPITAL", "STATE": "OH", "BEDS": 40 }, "geometry": { "type": "Point", "coordinates": [ -82.6742, 40.8824 ] } },
{ "type": "Feature", "properties": { "ID": "0007945601", "NAME": "ADENA REGIONAL MEDICAL CENTER", "STATE": "OH", "BEDS": 261 }, "geometry": { "type": "Point", "coordinates": [ -82.9676, 39.3965 ] } },
{ "type": "Feature", "properties": { "ID": "0011444883", "NAME": "MERCY TIFFIN HOSPITAL", "STATE": "OH", "BEDS": 120 }, "geometry": { "type": "Point", "coordinates": [ -83.2163, 41.1038 ] } },
{ "type": "Feature", "properties": { "ID": "0003744203", "NAME": "SUMMA HEALTH SYSTEM BARBERTON HOSPITAL", "STATE": "OH", "BEDS": 271 }, "geometry": { "type": "Point", "coordinates": [ -81.589, 41.0151 ] } },
{ "type": "Feature", "properties": { "ID": "0011344310", "NAME": "ST THOMAS HOSPITAL", "STATE": "OH", "BEDS": 392 }, "geometry": { "type": "Point", "coordinates": [ -81.5141, 41.0976 ] } },
{ "type": "Feature", "properties": { "ID": "0030044203", "NAME": "REGENCY HOSPITAL OF AKRON", "STATE": "OH", "BEDS": 45 }, "geometry": { "type": "Point", "coordinates": [ -81.5891, 41.0146 ] } },
{ "type": "Feature", "properties": { "ID": "0001244106", "NAME": "LOUIS STOKES CLEVELAND VETERANS AFFAIRS MEDICAL CENTER", "STATE": "OH", "BEDS": 585 }, "geometry": { "type": "Point", "coordinates": [ -81.6137, 41.5133 ] } },
{ "type": "Feature", "properties": { "ID": "0122843160", "NAME": "FAYETTE COUNTY MEMORIAL HOSPITAL", "STATE": "OH", "BEDS": 25 }, "geometry": { "type": "Point", "coordinates": [ -83.4271, 39.5479 ] } },
{ "type": "Feature", "properties": { "ID": "0122544310", "NAME": "CRYSTAL CLINIC ORTHOPAEDIC CENTER", "STATE": "OH", "BEDS": 94 }, "geometry": { "type": "Point", "coordinates": [ -81.5135, 41.0969 ] } },
{ "type": "Feature", "properties": { "ID": "0124143205", "NAME": "NATIONWIDE CHILDREN'S HOSPITAL", "STATE": "OH", "BEDS": 468 }, "geometry": { "type": "Point", "coordinates": [ -82.9795, 39.9525 ] } },
{ "type": "Feature", "properties": { "ID": "0124343223", "NAME": "OHIO HOSPITAL FOR PSYCHIATRY", "STATE": "OH", "BEDS": 90 }, "geometry": { "type": "Point", "coordinates": [ -83.0203, 39.9407 ] } },
{ "type": "Feature", "properties": { "ID": "0125345420", "NAME": "ACCESS HOSPITAL DAYTON, LLC", "STATE": "OH", "BEDS": 110 }, "geometry": { "type": "Point", "coordinates": [ -84.1542, 39.736 ] } },
{ "type": "Feature", "properties": { "ID": "0127045229", "NAME": "SHRINERS HOSPITALS FOR CHILDREN - CINCINNATI", "STATE": "OH", "BEDS": 30 }, "geometry": { "type": "Point", "coordinates": [ -84.5013, 39.1373 ] } },
{ "type": "Feature", "properties": { "ID": "0126543537", "NAME": "ARROWHEAD BEHAVIORAL HEALTH", "STATE": "OH", "BEDS": 48 }, "geometry": { "type": "Point", "coordinates": [ -83.6892, 41.5898 ] } },
{ "type": "Feature", "properties": { "ID": "0124744106", "NAME": "RAINBOW BABIES AND CHILDRENS HOSPITAL", "STATE": "OH", "BEDS": 237 }, "geometry": { "type": "Point", "coordinates": [ -81.6058, 41.5076 ] } },
{ "type": "Feature", "properties": { "ID": "0129043230", "NAME": "WOODS AT PARKSIDE,THE", "STATE": "OH", "BEDS": 50 }, "geometry": { "type": "Point", "coordinates": [ -82.8818, 40.0271 ] } },
{ "type": "Feature", "properties": { "ID": "0130045404", "NAME": "DAYTON CHILDREN'S HOSPITAL", "STATE": "OH", "BEDS": 155 }, "geometry": { "type": "Point", "coordinates": [ -84.168, 39.7742 ] } },
{ "type": "Feature", "properties": { "ID": "0006645679", "NAME": "ADAMS COUNTY REGIONAL MEDICAL CENTER", "STATE": "OH", "BEDS": 25 }, "geometry": { "type": "Point", "coordinates": [ -83.5846, 38.9341 ] } },
{ "type": "Feature", "properties": { "ID": "0123645801", "NAME": "KINDRED HOSPITAL LIMA", "STATE": "OH", "BEDS": 26 }, "geometry": { "type": "Point", "coordinates": [ -84.118, 40.7411 ] } },
{ "type": "Feature", "properties": { "ID": "0014645801", "NAME": "ST RITA'S MEDICAL CENTER", "STATE": "OH", "BEDS": 424 }, "geometry": { "type": "Point", "coordinates": [ -84.1184, 40.7409 ] } },
{ "type": "Feature", "properties": { "ID": "0005445885", "NAME": "JOINT TOWNSHIP DISTRICT MEMORIAL HOSPITAL", "STATE": "OH", "BEDS": 140 }, "geometry": { "type": "Point", "coordinates": [ -84.3707, 40.5444 ] } },
{ "type": "Feature", "properties": { "ID": "0123845504", "NAME": "MENTAL HEALTH SERVICES FOR CLARK AND MADISON COS", "STATE": "OH", "BEDS": 16 }, "geometry": { "type": "Point", "coordinates": [ -83.818, 39.9311 ] } },
{ "type": "Feature", "properties": { "ID": "0008545103", "NAME": "MERCY HOSPITAL CLERMONT", "STATE": "OH", "BEDS": 148 }, "geometry": { "type": "Point", "coordinates": [ -84.1445, 39.0805 ] } },
{ "type": "Feature", "properties": { "ID": "0125244460", "NAME": "SALEM REGIONAL MEDICAL CENTER", "STATE": "OH", "BEDS": 199 }, "geometry": { "type": "Point", "coordinates": [ -80.8324, 40.9005 ] } },
{ "type": "Feature", "properties": { "ID": "0005744122", "NAME": "SOUTH POINTE HOSPITAL", "STATE": "OH", "BEDS": 344 }, "geometry": { "type": "Point", "coordinates": [ -81.5377, 41.4479 ] } },
{ "type": "Feature", "properties": { "ID": "0000000093", "NAME": "SPRINGFIELD REGIONAL MEDICAL CTR-ER", "STATE": "OH", "BEDS": 230 }, "geometry": { "type": "Point", "coordinates": [ -83.8168, 39.9288 ] } },
{ "type": "Feature", "properties": { "ID": "0028044122", "NAME": "HIGHLAND SPRINGS HOSPITAL", "STATE": "OH", "BEDS": 72 }, "geometry": { "type": "Point", "coordinates": [ -81.5223, 41.4504 ] } },
{ "type": "Feature", "properties": { "ID": "0004644119", "NAME": "EUCLID HOSPITAL", "STATE": "OH", "BEDS": 371 }, "geometry": { "type": "Point", "coordinates": [ -81.5488, 41.5989 ] } },
{ "type": "Feature", "properties": { "ID": "0005943526", "NAME": "COMMUNITY MEMORIAL HOSPITAL", "STATE": "OH", "BEDS": 30 }, "geometry": { "type": "Point", "coordinates": [ -84.7559, 41.3018 ] } },
{ "type": "Feature", "properties": { "ID": "0014743054", "NAME": "MT CARMEL NEW ALBANY SURGICAL HOSPITAL", "STATE": "OH", "BEDS": 60 }, "geometry": { "type": "Point", "coordinates": [ -82.7902, 40.0864 ] } },
{ "type": "Feature", "properties": { "ID": "0012043081", "NAME": "MOUNT CARMEL ST ANN'S HOSPITAL", "STATE": "OH", "BEDS": 392 }, "geometry": { "type": "Point", "coordinates": [ -82.9467, 40.1148 ] } },
{ "type": "Feature", "properties": { "ID": "0129744710", "NAME": "ACUTE CARE SPECIALTY HOSPITAL - AULTMAN", "STATE": "OH", "BEDS": 30 }, "geometry": { "type": "Point", "coordinates": [ -81.404, 40.7962 ] } },
{ "type": "Feature", "properties": { "ID": "0014945255", "NAME": "MERCY HOSPITAL ANDERSON", "STATE": "OH", "BEDS": 226 }, "geometry": { "type": "Point", "coordinates": [ -84.3489, 39.0857 ] } },
{ "type": "Feature", "properties": { "ID": "0000145690", "NAME": "PIKE COMMUNITY HOSPITAL", "STATE": "OH", "BEDS": 25 }, "geometry": { "type": "Point", "coordinates": [ -83.0042, 39.1163 ] } },
{ "type": "Feature", "properties": { "ID": "0122343543", "NAME": "COMMUNITY HOSPITALS AND WELLNESS CENTERS MONTPELIER", "STATE": "OH", "BEDS": 25 }, "geometry": { "type": "Point", "coordinates": [ -84.5953, 41.5901 ] } },
{ "type": "Feature", "properties": { "ID": "0017345408", "NAME": "MEDICAL CENTER AT ELIZABETH PLACE", "STATE": "OH", "BEDS": 26 }, "geometry": { "type": "Point", "coordinates": [ -84.1993, 39.747 ] } },
{ "type": "Feature", "properties": { "ID": "0010244307", "NAME": "AKRON GENERAL MEDICAL CENTER", "STATE": "OH", "BEDS": 532 }, "geometry": { "type": "Point", "coordinates": [ -81.5314, 41.0781 ] } },
{ "type": "Feature", "properties": { "ID": "0127543210", "NAME": "OSU JAMES CANCER HOSPITAL & SOLOVE RESEARCH INSTITUTE", "STATE": "OH", "BEDS": 306 }, "geometry": { "type": "Point", "coordinates": [ -83.0167, 39.9956 ] } },
{ "type": "Feature", "properties": { "ID": "0122645216", "NAME": "DRAKE CENTER INC", "STATE": "OH", "BEDS": 316 }, "geometry": { "type": "Point", "coordinates": [ -84.4811, 39.2126 ] } },
{ "type": "Feature", "properties": { "ID": "0017945227", "NAME": "MERCY ST THERESA CENTER", "STATE": "OH", "BEDS": -999 }, "geometry": { "type": "Point", "coordinates": [ -84.369, 39.1493 ] } },
{ "type": "Feature", "properties": { "ID": "0012645123", "NAME": "ADENA GREENFIELD MEDICAL CENTER", "STATE": "OH", "BEDS": 25 }, "geometry": { "type": "Point", "coordinates": [ -83.3877, 39.3487 ] } },
{ "type": "Feature", "properties": { "ID": "0017244654", "NAME": "POMERENE HOSPITAL", "STATE": "OH", "BEDS": 69 }, "geometry": { "type": "Point", "coordinates": [ -81.9199, 40.5651 ] } },
{ "type": "Feature", "properties": { "ID": "0002543055", "NAME": "LICKING MEMORIAL HOSPITAL", "STATE": "OH", "BEDS": 213 }, "geometry": { "type": "Point", "coordinates": [ -82.4506, 40.0483 ] } },
{ "type": "Feature", "properties": { "ID": "0005843311", "NAME": "MARY RUTAN HOSPITAL", "STATE": "OH", "BEDS": 115 }, "geometry": { "type": "Point", "coordinates": [ -83.7555, 40.3695 ] } },
{ "type": "Feature", "properties": { "ID": "0005544074", "NAME": "MERCY ALLEN HOSPITAL", "STATE": "OH", "BEDS": 25 }, "geometry": { "type": "Point", "coordinates": [ -82.2247, 41.2951 ] } },
{ "type": "Feature", "properties": { "ID": "0011844501", "NAME": "NORTHSIDE MEDICAL CENTER", "STATE": "OH", "BEDS": 398 }, "geometry": { "type": "Point", "coordinates": [ -80.658, 41.135 ] } },
{ "type": "Feature", "properties": { "ID": "0130345408", "NAME": "HEALTHSOUTH REHABILITATION HOSPITAL DAYTON", "STATE": "OH", "BEDS": 50 }, "geometry": { "type": "Point", "coordinates": [ -84.2, 39.7482 ] } },
{ "type": "Feature", "properties": { "ID": "0029745439", "NAME": "KETTERING YOUTH SERVICES", "STATE": "OH", "BEDS": 60 }, "geometry": { "type": "Point", "coordinates": [ -84.211, 39.6754 ] } },
{ "type": "Feature", "properties": { "ID": "0002444708", "NAME": "MERCY MEDICAL CENTER", "STATE": "OH", "BEDS": 441 }, "geometry": { "type": "Point", "coordinates": [ -81.3949, 40.8122 ] } },
{ "type": "Feature", "properties": { "ID": "0000945879", "NAME": "PAULDING COUNTY HOSPITAL", "STATE": "OH", "BEDS": 25 }, "geometry": { "type": "Point", "coordinates": [ -84.6011, 41.1344 ] } },
{ "type": "Feature", "properties": { "ID": "0016443351", "NAME": "WYANDOT MEMORIAL HOSPITAL", "STATE": "OH", "BEDS": 31 }, "geometry": { "type": "Point", "coordinates": [ -83.28, 40.8403 ] } },
{ "type": "Feature", "properties": { "ID": "0011745640", "NAME": "HOLZER MEDICAL CENTER JACKSON", "STATE": "OH", "BEDS": 24 }, "geometry": { "type": "Point", "coordinates": [ -82.6408, 39.0323 ] } },
{ "type": "Feature", "properties": { "ID": "0017143907", "NAME": "HARRISON COMMUNITY HOSPITAL", "STATE": "OH", "BEDS": 25 }, "geometry": { "type": "Point", "coordinates": [ -80.9773, 40.2574 ] } },
{ "type": "Feature", "properties": { "ID": "0012144830", "NAME": "FOSTORIA COMMUNITY HOSPITAL", "STATE": "OH", "BEDS": 25 }, "geometry": { "type": "Point", "coordinates": [ -83.4242, 41.163 ] } },
{ "type": "Feature", "properties": { "ID": "0004144113", "NAME": "LUTHERAN HOSPITAL", "STATE": "OH", "BEDS": 203 }, "geometry": { "type": "Point", "coordinates": [ -81.7073, 41.4876 ] } },
{ "type": "Feature", "properties": { "ID": "0190744504", "NAME": "GENERATIONS BEHAVIORAL HEALTH-YOUNGSTOWN LLC", "STATE": "OH", "BEDS": 76 }, "geometry": { "type": "Point", "coordinates": [ -80.6632, 41.1382 ] } },
{ "type": "Feature", "properties": { "ID": "0000745804", "NAME": "LIMA MEMORIAL HEALTH SYSTEM", "STATE": "OH", "BEDS": 329 }, "geometry": { "type": "Point", "coordinates": [ -84.086, 40.7357 ] } },
{ "type": "Feature", "properties": { "ID": "0005045764", "NAME": "DOCTORS HOSPITAL OF NELSONVILLE", "STATE": "OH", "BEDS": 25 }, "geometry": { "type": "Point", "coordinates": [ -82.2432, 39.4633 ] } },
{ "type": "Feature", "properties": { "ID": "0011543906", "NAME": "BELMONT COMMUNITY HOSPITAL", "STATE": "OH", "BEDS": 99 }, "geometry": { "type": "Point", "coordinates": [ -80.741, 40.0301 ] } },
{ "type": "Feature", "properties": { "ID": "0015345069", "NAME": "UNIVERSITY POINTE SURGICAL HOSPITAL", "STATE": "OH", "BEDS": 8 }, "geometry": { "type": "Point", "coordinates": [ -84.3657, 39.3614 ] } },
{ "type": "Feature", "properties": { "ID": "0010945121", "NAME": "SOUTHWEST REGIONAL MEDICAL CENTER", "STATE": "OH", "BEDS": 921 }, "geometry": { "type": "Point", "coordinates": [ -83.8968, 38.8589 ] } },
{ "type": "Feature", "properties": { "ID": "0008645014", "NAME": "MERCY HOSPITAL FAIRFIELD", "STATE": "OH", "BEDS": 209 }, "geometry": { "type": "Point", "coordinates": [ -84.5178, 39.3127 ] } },
{ "type": "Feature", "properties": { "ID": "0013245177", "NAME": "CLINTON MEMORIAL HOSPITAL", "STATE": "OH", "BEDS": 165 }, "geometry": { "type": "Point", "coordinates": [ -83.84, 39.4439 ] } },
{ "type": "Feature", "properties": { "ID": "0122244104", "NAME": "CLEVELAND CLINIC CHILDREN'S HOSPITAL FOR REHAB", "STATE": "OH", "BEDS": 52 }, "geometry": { "type": "Point", "coordinates": [ -81.6078, 41.4831 ] } },
{ "type": "Feature", "properties": { "ID": "0124844128", "NAME": "REGENCY HOSPITAL OF CLEVELAND EAST", "STATE": "OH", "BEDS": 44 }, "geometry": { "type": "Point", "coordinates": [ -81.5066, 41.4323 ] } },
{ "type": "Feature", "properties": { "ID": "0008244145", "NAME": "ST JOHN MEDICAL CENTER", "STATE": "OH", "BEDS": 204 }, "geometry": { "type": "Point", "coordinates": [ -81.9447, 41.4356 ] } },
{ "type": "Feature", "properties": { "ID": "0129444122", "NAME": "UNIVERSITY HOSPITALS REHABILITATION HOSPITAL", "STATE": "OH", "BEDS": 50 }, "geometry": { "type": "Point", "coordinates": [ -81.5102, 41.4519 ] } },
{ "type": "Feature", "properties": { "ID": "0003343512", "NAME": "MERCY HOSPITAL OF DEFIANCE", "STATE": "OH", "BEDS": 23 }, "geometry": { "type": "Point", "coordinates": [ -84.3402, 41.2833 ] } },
{ "type": "Feature", "properties": { "ID": "0010543130", "NAME": "FAIRFIELD MEDICAL CENTER", "STATE": "OH", "BEDS": 245 }, "geometry": { "type": "Point", "coordinates": [ -82.5775, 39.7176 ] } },
{ "type": "Feature", "properties": { "ID": "0012243228", "NAME": "DOCTORS HOSPITAL", "STATE": "OH", "BEDS": 251 }, "geometry": { "type": "Point", "coordinates": [ -83.1379, 39.9525 ] } },
{ "type": "Feature", "properties": { "ID": "0129343223", "NAME": "TWIN VALLEY BEHAVIORAL HEALTHCARE", "STATE": "OH", "BEDS": 228 }, "geometry": { "type": "Point", "coordinates": [ -83.0592, 39.9568 ] } },
{ "type": "Feature", "properties": { "ID": "0014543567", "NAME": "FULTON COUNTY HEALTH CENTER", "STATE": "OH", "BEDS": 117 }, "geometry": { "type": "Point", "coordinates": [ -84.1329, 41.539 ] } },
{ "type": "Feature", "properties": { "ID": "0006145219", "NAME": "CHRIST HOSPITAL", "STATE": "OH", "BEDS": 621 }, "geometry": { "type": "Point", "coordinates": [ -84.5109, 39.1209 ] } },
{ "type": "Feature", "properties": { "ID": "0009945220", "NAME": "GOOD SAMARITAN HOSPITAL", "STATE": "OH", "BEDS": 657 }, "geometry": { "type": "Point", "coordinates": [ -84.5223, 39.1399 ] } },
{ "type": "Feature", "properties": { "ID": "0130245211", "NAME": "MERCY HEALTH - WEST HOSPITAL", "STATE": "OH", "BEDS": 568 }, "geometry": { "type": "Point", "coordinates": [ -84.5964, 39.1806 ] } },
{ "type": "Feature", "properties": { "ID": "0009145241", "NAME": "TRIHEALTH EVENDALE MEDICAL CENTER", "STATE": "OH", "BEDS": 29 }, "geometry": { "type": "Point", "coordinates": [ -84.4204, 39.2515 ] } },
{ "type": "Feature", "properties": { "ID": "0002345133", "NAME": "HIGHLAND DISTRICT HOSPITAL", "STATE": "OH", "BEDS": 45 }, "geometry": { "type": "Point", "coordinates": [ -83.6108, 39.2218 ] } },
{ "type": "Feature", "properties": { "ID": "0010043952", "NAME": "TRINITY MEDICAL CTR EAST", "STATE": "OH", "BEDS": 244 }, "geometry": { "type": "Point", "coordinates": [ -80.6255, 40.3548 ] } },
{ "type": "Feature", "properties": { "ID": "0008745219", "NAME": "UC MEDICAL CENTER PSYCHIATRIC", "STATE": "OH", "BEDS": 72 }, "geometry": { "type": "Point", "coordinates": [ -84.5223, 39.1295 ] } },
{ "type": "Feature", "properties": { "ID": "0002743050", "NAME": "KNOX COMMUNITY HOSPITAL", "STATE": "OH", "BEDS": 111 }, "geometry": { "type": "Point", "coordinates": [ -82.4485, 40.3997 ] } },
{ "type": "Feature", "properties": { "ID": "0015044077", "NAME": "TRIPOINT MEDICAL CENTER", "STATE": "OH", "BEDS": 135 }, "geometry": { "type": "Point", "coordinates": [ -81.2471, 41.6626 ] } },
{ "type": "Feature", "properties": { "ID": "0013544035", "NAME": "EMH REGIONAL MEDICAL CENTER", "STATE": "OH", "BEDS": 387 }, "geometry": { "type": "Point", "coordinates": [ -82.0973, 41.3669 ] } },
{ "type": "Feature", "properties": { "ID": "0029144011", "NAME": "CLEVELAND CLINIC REHABILITATION HOSPITAL, LLC", "STATE": "OH", "BEDS": 60 }, "geometry": { "type": "Point", "coordinates": [ -81.9858, 41.4731 ] } },
{ "type": "Feature", "properties": { "ID": "0029243615", "NAME": "PROMEDICA WILDWOOD ORTHOPEDICA AND SPINE HOSPITAL", "STATE": "OH", "BEDS": 42 }, "geometry": { "type": "Point", "coordinates": [ -83.6736, 41.6738 ] } },
{ "type": "Feature", "properties": { "ID": "0128443055", "NAME": "MEDICAL CENTER OF NEWARK LLC", "STATE": "OH", "BEDS": 35 }, "geometry": { "type": "Point", "coordinates": [ -82.4651, 40.0426 ] } },
{ "type": "Feature", "properties": { "ID": "0009444903", "NAME": "OHIOHEALTH MANSFIELD HOSPITAL", "STATE": "OH", "BEDS": 358 }, "geometry": { "type": "Point", "coordinates": [ -82.5295, 40.7529 ] } },
{ "type": "Feature", "properties": { "ID": "0003244811", "NAME": "BELLEVUE HOSPITAL", "STATE": "OH", "BEDS": 59 }, "geometry": { "type": "Point", "coordinates": [ -82.8816, 41.288 ] } },
{ "type": "Feature", "properties": { "ID": "0014443420", "NAME": "MEMORIAL HOSPITAL", "STATE": "OH", "BEDS": 100 }, "geometry": { "type": "Point", "coordinates": [ -83.1354, 41.3393 ] } },
{ "type": "Feature", "properties": { "ID": "0004345662", "NAME": "SOUTHERN OHIO MEDICAL CENTER", "STATE": "OH", "BEDS": 436 }, "geometry": { "type": "Point", "coordinates": [ -82.9777, 38.7533 ] } },
{ "type": "Feature", "properties": { "ID": "0016344646", "NAME": "AFFINITY MEDICAL CENTER", "STATE": "OH", "BEDS": 156 }, "geometry": { "type": "Point", "coordinates": [ -81.5175, 40.8064 ] } },
{ "type": "Feature", "properties": { "ID": "0012444309", "NAME": "SUMMA HEALTH SYSTEMS AKRON HOSPITAL", "STATE": "OH", "BEDS": 657 }, "geometry": { "type": "Point", "coordinates": [ -81.4998, 41.0811 ] } },
{ "type": "Feature", "properties": { "ID": "0130144648", "NAME": "HEARTLAND BEHAVIORAL HEALTHCARE", "STATE": "OH", "BEDS": 152 }, "geometry": { "type": "Point", "coordinates": [ -81.5078, 40.7682 ] } },
{ "type": "Feature", "properties": { "ID": "0174845242", "NAME": "ASSURANCE HEALTH CINCINNATI LLC", "STATE": "OH", "BEDS": 42 }, "geometry": { "type": "Point", "coordinates": [ -84.3674, 39.2819 ] } },
{ "type": "Feature", "properties": { "ID": "0180443082", "NAME": "MOUNT CARMEL REHABILITATION HOSPITAL", "STATE": "OH", "BEDS": 60 }, "geometry": { "type": "Point", "coordinates": [ -82.9485, 40.1447 ] } },
{ "type": "Feature", "properties": { "ID": "0126144308", "NAME": "AKRON CHILDREN'S HOSPITAL", "STATE": "OH", "BEDS": 297 }, "geometry": { "type": "Point", "coordinates": [ -81.5253, 41.0793 ] } },
{ "type": "Feature", "properties": { "ID": "0127744621", "NAME": "TEN LAKES CENTER, LLC", "STATE": "OH", "BEDS": 16 }, "geometry": { "type": "Point", "coordinates": [ -81.3363, 40.4013 ] } },
{ "type": "Feature", "properties": { "ID": "0028144155", "NAME": "SELECT SPECIALTY HOSPITAL - CLEVELAND GATEWAY", "STATE": "OH", "BEDS": 75 }, "geometry": { "type": "Point", "coordinates": [ -81.6728, 41.4965 ] } },
{ "type": "Feature", "properties": { "ID": "0029344512", "NAME": "SELECT SPECIALTY HOSPITAL - YOUNGSTOWN BOARDMAN", "STATE": "OH", "BEDS": 24 }, "geometry": { "type": "Point", "coordinates": [ -80.6597, 40.9943 ] } },
{ "type": "Feature", "properties": { "ID": "0007344001", "NAME": "SPECIALTY HOSPITAL OF LORAIN", "STATE": "OH", "BEDS": 30 }, "geometry": { "type": "Point", "coordinates": [ -82.2236, 41.3992 ] } },
{ "type": "Feature", "properties": { "ID": "0126345220", "NAME": "SELECT SPECIALTY HOSPITAL-CINCINNATI, INC", "STATE": "OH", "BEDS": 36 }, "geometry": { "type": "Point", "coordinates": [ -84.5208, 39.1401 ] } },
{ "type": "Feature", "properties": { "ID": "0126744708", "NAME": "SELECT SPECIALTY HOSPITAL-NORTHEAST OHIO, INC", "STATE": "OH", "BEDS": 30 }, "geometry": { "type": "Point", "coordinates": [ -81.3959, 40.8122 ] } },
{ "type": "Feature", "properties": { "ID": "0123544903", "NAME": "KINDRED HOSPITAL CENTRAL OHIO", "STATE": "OH", "BEDS": 33 }, "geometry": { "type": "Point", "coordinates": [ -82.5282, 40.7527 ] } },
{ "type": "Feature", "properties": { "ID": "0028443222", "NAME": "SELECT SPECIALTY HOSPITAL MT. CARMEL", "STATE": "OH", "BEDS": 24 }, "geometry": { "type": "Point", "coordinates": [ -83.0223, 39.9579 ] } },
{ "type": "Feature", "properties": { "ID": "0126443201", "NAME": "SELECT SPECIALTY HOSPITAL-COLUMBUS, INC", "STATE": "OH", "BEDS": 162 }, "geometry": { "type": "Point", "coordinates": [ -83.0088, 39.9846 ] } },
{ "type": "Feature", "properties": { "ID": "0028543205", "NAME": "SELECT SPECIALTY HOSPITAL COLUMBUS EAST", "STATE": "OH", "BEDS": 23 }, "geometry": { "type": "Point", "coordinates": [ -82.9629, 39.9708 ] } },
{ "type": "Feature", "properties": { "ID": "0123044512", "NAME": "GREENBRIAR REHABILITATION HOSPITAL", "STATE": "OH", "BEDS": -999 }, "geometry": { "type": "Point", "coordinates": [ -80.635, 41.003 ] } },
{ "type": "Feature", "properties": { "ID": "0128745219", "NAME": "REGENCY HOSPITAL OF CINCINNATI LLC", "STATE": "OH", "BEDS": 41 }, "geometry": { "type": "Point", "coordinates": [ -84.3414, 39.2522 ] } },
{ "type": "Feature", "properties": { "ID": "0129845417", "NAME": "HAVEN BEHAVIORAL SENIOR CARE OF DAYTON", "STATE": "OH", "BEDS": 32 }, "geometry": { "type": "Point", "coordinates": [ -84.1994, 39.7477 ] } },
{ "type": "Feature", "properties": { "ID": "0015745804", "NAME": "INSTITUTE FOR ORTHOPEDIC SURGERY", "STATE": "OH", "BEDS": 12 }, "geometry": { "type": "Point", "coordinates": [ -84.0878, 40.6972 ] } },
{ "type": "Feature", "properties": { "ID": "0125443952", "NAME": "ACUITY SPECIALTY OHIO VALLEY", "STATE": "OH", "BEDS": 24 }, "geometry": { "type": "Point", "coordinates": [ -80.6256, 40.3551 ] } },
{ "type": "Feature", "properties": { "ID": "0008144084", "NAME": "GLENBEIGH", "STATE": "OH", "BEDS": 114 }, "geometry": { "type": "Point", "coordinates": [ -80.8593, 41.6726 ] } },
{ "type": "Feature", "properties": { "ID": "0124543201", "NAME": "OHIOHEALTH REHABILITATION HOSPITAL", "STATE": "OH", "BEDS": 74 }, "geometry": { "type": "Point", "coordinates": [ -83.0089, 39.9839 ] } },
{ "type": "Feature", "properties": { "ID": "0028943055", "NAME": "SELECT SPECIALTY HOSPITAL SOUTHEAST OHIO", "STATE": "OH", "BEDS": 35 }, "geometry": { "type": "Point", "coordinates": [ -82.4647, 40.0426 ] } },
{ "type": "Feature", "properties": { "ID": "0029444484", "NAME": "SELECT SPECIALTY HOSPITAL WARREN CAMPUS", "STATE": "OH", "BEDS": 25 }, "geometry": { "type": "Point", "coordinates": [ -80.7771, 41.2304 ] } },
{ "type": "Feature", "properties": { "ID": "0123444120", "NAME": "SELECT SPECIALTY HOSPITAL - CLEVELAND FAIRHILL", "STATE": "OH", "BEDS": 68 }, "geometry": { "type": "Point", "coordinates": [ -81.5985, 41.49 ] } },
{ "type": "Feature", "properties": { "ID": "0123745662", "NAME": "KINGS DAUGHTERS MEDICAL CENTER OHIO", "STATE": "OH", "BEDS": 10 }, "geometry": { "type": "Point", "coordinates": [ -82.9926, 38.7483 ] } },
{ "type": "Feature", "properties": { "ID": "0128345040", "NAME": "LINDNER CENTER OF HOPE", "STATE": "OH", "BEDS": 34 }, "geometry": { "type": "Point", "coordinates": [ -84.2946, 39.3315 ] } },
{ "type": "Feature", "properties": { "ID": "0122045213", "NAME": "BLUERIDGE VISTA HEALTH AND WELLNESS", "STATE": "OH", "BEDS": 44 }, "geometry": { "type": "Point", "coordinates": [ -84.43, 39.1732 ] } },
{ "type": "Feature", "properties": { "ID": "0127445237", "NAME": "SUMMIT BEHAVIORAL HEALTHCARE", "STATE": "OH", "BEDS": 291 }, "geometry": { "type": "Point", "coordinates": [ -84.4702, 39.1954 ] } },
{ "type": "Feature", "properties": { "ID": "0000000092", "NAME": "WESTERVILLE MEDICAL CAMPUS", "STATE": "OH", "BEDS": -999 }, "geometry": { "type": "Point", "coordinates": [ -82.9377, 40.1471 ] } },
{ "type": "Feature", "properties": { "ID": "0192643209", "NAME": "RIVER VISTA HEALTH AND WELLNESS LLC", "STATE": "OH", "BEDS": 80 }, "geometry": { "type": "Point", "coordinates": [ -82.9432, 39.9356 ] } },
{ "type": "Feature", "properties": { "ID": "0192543054", "NAME": "WHITE FENCE SURGICAL SUITES", "STATE": "OH", "BEDS": -999 }, "geometry": { "type": "Point", "coordinates": [ -82.7905, 40.0863 ] } },
{ "type": "Feature", "properties": { "ID": "0013944622", "NAME": "UNION HOSPITAL", "STATE": "OH", "BEDS": 157 }, "geometry": { "type": "Point", "coordinates": [ -81.4559, 40.5144 ] } },
{ "type": "Feature", "properties": { "ID": "0011943040", "NAME": "MEMORIAL HOSPITAL OF UNION COUNTY", "STATE": "OH", "BEDS": 97 }, "geometry": { "type": "Point", "coordinates": [ -83.3676, 40.2301 ] } },
{ "type": "Feature", "properties": { "ID": "0000245631", "NAME": "HOLZER MEDICAL CENTER", "STATE": "OH", "BEDS": 287 }, "geometry": { "type": "Point", "coordinates": [ -82.2375, 38.8465 ] } },
{ "type": "Feature", "properties": { "ID": "0011143506", "NAME": "COMMUNITY HOSPITALS AND WELLNESS CENTERS BRYAN", "STATE": "OH", "BEDS": 98 }, "geometry": { "type": "Point", "coordinates": [ -84.5567, 41.4741 ] } },
{ "type": "Feature", "properties": { "ID": "0010845428", "NAME": "DAYTON VA MEDICAL CENTER", "STATE": "OH", "BEDS": 460 }, "geometry": { "type": "Point", "coordinates": [ -84.2646, 39.7427 ] } },
{ "type": "Feature", "properties": { "ID": "0011443219", "NAME": "CHALMERS P. WYLIE VA AMBULATORY CARE CENTER", "STATE": "OH", "BEDS": -999 }, "geometry": { "type": "Point", "coordinates": [ -82.9096, 39.9808 ] } },
{ "type": "Feature", "properties": { "ID": "0000000095", "NAME": "CINCINNATI CHILDREN'S LIBERTY", "STATE": "OH", "BEDS": 42 }, "geometry": { "type": "Point", "coordinates": [ -84.3679, 39.3766 ] } },
{ "type": "Feature", "properties": { "ID": "0000000090", "NAME": "BETHESDA ARROW SPRINGS-ER", "STATE": "OH", "BEDS": -999 }, "geometry": { "type": "Point", "coordinates": [ -84.2094, 39.3952 ] } },
{ "type": "Feature", "properties": { "ID": "0006343608", "NAME": "MERCY ST VINCENT MEDICAL CENTER", "STATE": "OH", "BEDS": 568 }, "geometry": { "type": "Point", "coordinates": [ -83.5428, 41.6687 ] } },
{ "type": "Feature", "properties": { "ID": "0122145229", "NAME": "CHILDREN'S HOSPITAL MEDICAL CENTER", "STATE": "OH", "BEDS": 501 }, "geometry": { "type": "Point", "coordinates": [ -84.5024, 39.1409 ] } },
{ "type": "Feature", "properties": { "ID": "0030245040", "NAME": "CINCINNATI CHILDREN'S HOSPITAL MEDICAL CENTER AT LINDNER CENTER", "STATE": "OH", "BEDS": 16 }, "geometry": { "type": "Point", "coordinates": [ -84.2954, 39.3311 ] } },
{ "type": "Feature", "properties": { "ID": "0030144482", "NAME": "VIBRA MAHONING VALLEY HOSPITAL TRUMBULL CAMPUS", "STATE": "OH", "BEDS": 34 }, "geometry": { "type": "Point", "coordinates": [ -80.7994, 41.2358 ] } },
{ "type": "Feature", "properties": { "ID": "0003045817", "NAME": "BLUFFTON HOSPITAL", "STATE": "OH", "BEDS": 39 }, "geometry": { "type": "Point", "coordinates": [ -83.8969, 40.8876 ] } },
{ "type": "Feature", "properties": { "ID": "0000844805", "NAME": "UNIVERSITY HOSPITALS SAMARITAN MEDICAL", "STATE": "OH", "BEDS": 123 }, "geometry": { "type": "Point", "coordinates": [ -82.3095, 40.8592 ] } },
{ "type": "Feature", "properties": { "ID": "0016244041", "NAME": "UHHS MEMORIAL HOSPITAL OF GENEVA", "STATE": "OH", "BEDS": 25 }, "geometry": { "type": "Point", "coordinates": [ -80.9622, 41.7995 ] } },
{ "type": "Feature", "properties": { "ID": "0003844030", "NAME": "UNIVERSITY HOSPITALS CONNEAUT MEDICAL CENTER", "STATE": "OH", "BEDS": 25 }, "geometry": { "type": "Point", "coordinates": [ -80.5868, 41.9376 ] } },
{ "type": "Feature", "properties": { "ID": "0029944646", "NAME": "AULTMAN HOSPITAL WEST", "STATE": "OH", "BEDS": 8 }, "geometry": { "type": "Point", "coordinates": [ -81.5045, 40.8222 ] } },
{ "type": "Feature", "properties": { "ID": "0007044004", "NAME": "ASHTABULA COUNTY MEDICAL CENTER", "STATE": "OH", "BEDS": 249 }, "geometry": { "type": "Point", "coordinates": [ -80.7949, 41.8805 ] } },
{ "type": "Feature", "properties": { "ID": "0027644041", "NAME": "GENERATIONS BEHAVIORAL HEALTH - GENEVA, LLC", "STATE": "OH", "BEDS": 16 }, "geometry": { "type": "Point", "coordinates": [ -80.9639, 41.7984 ] } },
{ "type": "Feature", "properties": { "ID": "0126245701", "NAME": "APPALACHIAN BEHAVIORAL HEALTH CARE", "STATE": "OH", "BEDS": 88 }, "geometry": { "type": "Point", "coordinates": [ -82.1188, 39.3288 ] } },
{ "type": "Feature", "properties": { "ID": "0013743713", "NAME": "BARNESVILLE HOSPITAL ASSOCIATION, INC", "STATE": "OH", "BEDS": 25 }, "geometry": { "type": "Point", "coordinates": [ -81.189, 39.993 ] } },
{ "type": "Feature", "properties": { "ID": "0016543935", "NAME": "EAST OHIO REGIONAL HOSPITAL", "STATE": "OH", "BEDS": 161 }, "geometry": { "type": "Point", "coordinates": [ -80.7206, 40.0985 ] } },
{ "type": "Feature", "properties": { "ID": "0015245069", "NAME": "WEST CHESTER MEDICAL CENTER", "STATE": "OH", "BEDS": 194 }, "geometry": { "type": "Point", "coordinates": [ -84.3676, 39.358 ] } },
{ "type": "Feature", "properties": { "ID": "0008845011", "NAME": "BETHESDA BUTLER HOSPITAL", "STATE": "OH", "BEDS": 10 }, "geometry": { "type": "Point", "coordinates": [ -84.5151, 39.3783 ] } },
{ "type": "Feature", "properties": { "ID": "0027743906", "NAME": "ACUITY SPECIALTY HOSPITAL - OHIO VALLEY AT BELMONT", "STATE": "OH", "BEDS": 15 }, "geometry": { "type": "Point", "coordinates": [ -80.7409, 40.0305 ] } },
{ "type": "Feature", "properties": { "ID": "0013645013", "NAME": "FORT HAMILTON HUGHES MEMORIAL HOSPITAL", "STATE": "OH", "BEDS": 274 }, "geometry": { "type": "Point", "coordinates": [ -84.5727, 39.4155 ] } },
{ "type": "Feature", "properties": { "ID": "0126645069", "NAME": "BECKETT SPRINGS", "STATE": "OH", "BEDS": 72 }, "geometry": { "type": "Point", "coordinates": [ -84.4559, 39.3437 ] } },
{ "type": "Feature", "properties": { "ID": "0011043920", "NAME": "EAST LIVERPOOL CITY HOSPITAL", "STATE": "OH", "BEDS": 152 }, "geometry": { "type": "Point", "coordinates": [ -80.586, 40.6219 ] } },
{ "type": "Feature", "properties": { "ID": "0014144124", "NAME": "HILLCREST HOSPITAL", "STATE": "OH", "BEDS": 500 }, "geometry": { "type": "Point", "coordinates": [ -81.4362, 41.5183 ] } },
{ "type": "Feature", "properties": { "ID": "0027944130", "NAME": "REGENCY HOSPITAL OF CLEVELAND WEST", "STATE": "OH", "BEDS": 43 }, "geometry": { "type": "Point", "coordinates": [ -81.8276, 41.3774 ] } },
{ "type": "Feature", "properties": { "ID": "0007244109", "NAME": "METRO HEALTH MEDICAL CENTER", "STATE": "OH", "BEDS": 731 }, "geometry": { "type": "Point", "coordinates": [ -81.6976, 41.4609 ] } },
{ "type": "Feature", "properties": { "ID": "0004544130", "NAME": "SOUTHWEST GENERAL HEALTH CENTER", "STATE": "OH", "BEDS": 362 }, "geometry": { "type": "Point", "coordinates": [ -81.8321, 41.371 ] } },
{ "type": "Feature", "properties": { "ID": "0002043512", "NAME": "DEFIANCE REGIONAL MEDICAL CENTER", "STATE": "OH", "BEDS": 51 }, "geometry": { "type": "Point", "coordinates": [ -84.3766, 41.2987 ] } },
{ "type": "Feature", "properties": { "ID": "0001844870", "NAME": "FIRELANDS REGIONAL MEDICAL CENTER", "STATE": "OH", "BEDS": 283 }, "geometry": { "type": "Point", "coordinates": [ -82.7102, 41.4459 ] } },
{ "type": "Feature", "properties": { "ID": "0028244870", "NAME": "FIRELANDS REG MED CTR SOUTH CAMPUS", "STATE": "OH", "BEDS": 141 }, "geometry": { "type": "Point", "coordinates": [ -82.712, 41.437 ] } },
{ "type": "Feature", "properties": { "ID": "0015443110", "NAME": "DILEY RIDGE MEDICAL CENTER", "STATE": "OH", "BEDS": 10 }, "geometry": { "type": "Point", "coordinates": [ -82.7841, 39.8507 ] } },
{ "type": "Feature", "properties": { "ID": "0124643223", "NAME": "POMEGRANATE HEALTH SYSTEMS OF COLUMBUS", "STATE": "OH", "BEDS": 20 }, "geometry": { "type": "Point", "coordinates": [ -83.0182, 39.9467 ] } },
{ "type": "Feature", "properties": { "ID": "0028343205", "NAME": "OHIO STATE UNIVERSITY HOSPITAL EAST", "STATE": "OH", "BEDS": 190 }, "geometry": { "type": "Point", "coordinates": [ -82.9629, 39.9705 ] } },
{ "type": "Feature", "properties": { "ID": "0014843016", "NAME": "DUBLIN METHODIST HOSPITAL", "STATE": "OH", "BEDS": 147 }, "geometry": { "type": "Point", "coordinates": [ -83.1657, 40.1012 ] } },
{ "type": "Feature", "properties": { "ID": "0001643215", "NAME": "GRANT MEDICAL CENTER", "STATE": "OH", "BEDS": 636 }, "geometry": { "type": "Point", "coordinates": [ -82.991, 39.961 ] } },
{ "type": "Feature", "properties": { "ID": "0124043222", "NAME": "MOUNT CARMEL WEST", "STATE": "OH", "BEDS": 514 }, "geometry": { "type": "Point", "coordinates": [ -83.0219, 39.9574 ] } },
{ "type": "Feature", "properties": { "ID": "0170843699", "NAME": "REHABILITATION HOSPITAL OF NORTHWEST OHIO LLC", "STATE": "OH", "BEDS": 40 }, "geometry": { "type": "Point", "coordinates": [ -83.6197, 41.6148 ] } },
{ "type": "Feature", "properties": { "ID": "0013143138", "NAME": "HOCKING VALLEY COMMUNITY HOSPITAL", "STATE": "OH", "BEDS": 30 }, "geometry": { "type": "Point", "coordinates": [ -82.4296, 39.548 ] } },
{ "type": "Feature", "properties": { "ID": "0123244024", "NAME": "REHAB HOSPITAL AT HEATHER HILL CARE COMMUNITIES", "STATE": "OH", "BEDS": 56 }, "geometry": { "type": "Point", "coordinates": [ -81.223, 41.5357 ] } },
{ "type": "Feature", "properties": { "ID": "0012845669", "NAME": "THREE GABLES SURGERY CENTER", "STATE": "OH", "BEDS": 8 }, "geometry": { "type": "Point", "coordinates": [ -82.393, 38.4418 ] } },
{ "type": "Feature", "properties": { "ID": "0029043055", "NAME": "SHEPERD HILL HOSPITAL", "STATE": "OH", "BEDS": 14 }, "geometry": { "type": "Point", "coordinates": [ -82.4537, 40.0411 ] } },
{ "type": "Feature", "properties": { "ID": "0009844053", "NAME": "MERCY REGIONAL MEDICAL CENTER", "STATE": "OH", "BEDS": 338 }, "geometry": { "type": "Point", "coordinates": [ -82.2372, 41.4365 ] } },
{ "type": "Feature", "properties": { "ID": "0012943537", "NAME": "ST LUKE'S HOSPITAL", "STATE": "OH", "BEDS": 315 }, "geometry": { "type": "Point", "coordinates": [ -83.6829, 41.5573 ] } },
{ "type": "Feature", "properties": { "ID": "0124244067", "NAME": "NORTHCOAST BEHAVIORAL HEALTHCARE NORTHFIELD CAMPUS", "STATE": "OH", "BEDS": 258 }, "geometry": { "type": "Point", "coordinates": [ -81.5726, 41.349 ] } },
{ "type": "Feature", "properties": { "ID": "0011545601", "NAME": "VA MEDICAL CENTER - CHILLICOTHE", "STATE": "OH", "BEDS": 141 }, "geometry": { "type": "Point", "coordinates": [ -83.0204, 39.3904 ] } },
{ "type": "Feature", "properties": { "ID": "0029645459", "NAME": "MIAMI VALLEY HOSPITAL SOUTH", "STATE": "OH", "BEDS": 87 }, "geometry": { "type": "Point", "coordinates": [ -84.1146, 39.6528 ] } },
{ "type": "Feature", "properties": { "ID": "0016745365", "NAME": "WILSON MEMORIAL HOSPITAL", "STATE": "OH", "BEDS": 90 }, "geometry": { "type": "Point", "coordinates": [ -84.1702, 40.2869 ] } },
{ "type": "Feature", "properties": { "ID": "0169844122", "NAME": "GRACE HOSPITAL SOUTH POINTE", "STATE": "OH", "BEDS": 20 }, "geometry": { "type": "Point", "coordinates": [ -81.5373, 41.4484 ] } },
{ "type": "Feature", "properties": { "ID": "0175245207", "NAME": "TRIHEALTH REHABILITATION HOSPITAL LLC", "STATE": "OH", "BEDS": 60 }, "geometry": { "type": "Point", "coordinates": [ -84.4592, 39.1447 ] } },
{ "type": "Feature", "properties": { "ID": "0005344601", "NAME": "ALLIANCE COMMUNITY HOSPITAL", "STATE": "OH", "BEDS": 255 }, "geometry": { "type": "Point", "coordinates": [ -81.1027, 40.9026 ] } },
{ "type": "Feature", "properties": { "ID": "0180044011", "NAME": "CLEVELAND CLINIC AVON HOSPITAL", "STATE": "OH", "BEDS": 126 }, "geometry": { "type": "Point", "coordinates": [ -81.9818, 41.4689 ] } },
{ "type": "Feature", "properties": { "ID": "0175344053", "NAME": "CLEAR VISTA HEALTH & WELLNESS", "STATE": "OH", "BEDS": 52 }, "geometry": { "type": "Point", "coordinates": [ -82.236, 41.4392 ] } },
{ "type": "Feature", "properties": { "ID": "0126044308", "NAME": "SELECT SPECIALTY HOSPITAL-AKRON", "STATE": "OH", "BEDS": 60 }, "geometry": { "type": "Point", "coordinates": [ -81.5118, 41.0829 ] } },
{ "type": "Feature", "properties": { "ID": "0129144304", "NAME": "SUMMA REHAB HOSPITAL", "STATE": "OH", "BEDS": 60 }, "geometry": { "type": "Point", "coordinates": [ -81.498, 41.0782 ] } },
{ "type": "Feature", "properties": { "ID": "0170744011", "NAME": "UNIVERSITY HOSPITALS AVON REHABILITATION HOSPITAL", "STATE": "OH", "BEDS": 50 }, "geometry": { "type": "Point", "coordinates": [ -82.044, 41.468 ] } },
{ "type": "Feature", "properties": { "ID": "0121944505", "NAME": "BELMONT PINES HOSPITAL", "STATE": "OH", "BEDS": 46 }, "geometry": { "type": "Point", "coordinates": [ -80.6556, 41.1613 ] } },
{ "type": "Feature", "properties": { "ID": "0180144883", "NAME": "SOJOURN AT SENECA", "STATE": "OH", "BEDS": 24 }, "geometry": { "type": "Point", "coordinates": [ -83.2181, 41.1056 ] } },
{ "type": "Feature", "properties": { "ID": "0170944906", "NAME": "AVITA ONTARIO", "STATE": "OH", "BEDS": 26 }, "geometry": { "type": "Point", "coordinates": [ -82.5936, 40.7715 ] } },
{ "type": "Feature", "properties": { "ID": "0000643302", "NAME": "MARION GENERAL HOSPITAL", "STATE": "OH", "BEDS": 270 }, "geometry": { "type": "Point", "coordinates": [ -83.1287, 40.5713 ] } },
{ "type": "Feature", "properties": { "ID": "0174743229", "NAME": "SUN BEHAVIORAL COLUMBUS", "STATE": "OH", "BEDS": 81 }, "geometry": { "type": "Point", "coordinates": [ -82.9935, 40.0891 ] } },
{ "type": "Feature", "properties": { "ID": "0128643614", "NAME": "NORTHWEST OHIO PSYCHIATRIC HOSPITAL", "STATE": "OH", "BEDS": 114 }, "geometry": { "type": "Point", "coordinates": [ -83.5995, 41.6214 ] } },
{ "type": "Feature", "properties": { "ID": "0000445502", "NAME": "OHIO VALLEY MEDICAL CENTER", "STATE": "OH", "BEDS": 24 }, "geometry": { "type": "Point", "coordinates": [ -83.813, 39.925 ] } },
{ "type": "Feature", "properties": { "ID": "0016943402", "NAME": "WOOD COUNTY HOSPITAL", "STATE": "OH", "BEDS": 196 }, "geometry": { "type": "Point", "coordinates": [ -83.6659, 41.3757 ] } },
{ "type": "Feature", "properties": { "ID": "0013043113", "NAME": "BERGER HOSPITAL", "STATE": "OH", "BEDS": 82 }, "geometry": { "type": "Point", "coordinates": [ -82.9362, 39.6103 ] } },
{ "type": "Feature", "properties": { "ID": "0002144125", "NAME": "MARYMOUNT HOSPITAL", "STATE": "OH", "BEDS": 315 }, "geometry": { "type": "Point", "coordinates": [ -81.598, 41.4212 ] } },
{ "type": "Feature", "properties": { "ID": "0000000096", "NAME": "MT CARMEL EAST HOSPITAL", "STATE": "OH", "BEDS": 461 }, "geometry": { "type": "Point", "coordinates": [ -82.8433, 39.9769 ] } },
{ "type": "Feature", "properties": { "ID": "0000000091", "NAME": "SOUTHVIEW HOSPITAL", "STATE": "OH", "BEDS": 128 }, "geometry": { "type": "Point", "coordinates": [ -84.2034, 39.6354 ] } },
{ "type": "Feature", "properties": { "ID": "0000000099", "NAME": "TRINITY MEDICAL CENTER WEST-ER", "STATE": "OH", "BEDS": 256 }, "geometry": { "type": "Point", "coordinates": [ -80.659, 40.3678 ] } },
{ "type": "Feature", "properties": { "ID": "0000000097", "NAME": "AKRON CHILDREN'S HOSP BEEGHLY", "STATE": "OH", "BEDS": 43 }, "geometry": { "type": "Point", "coordinates": [ -80.6605, 41.0326 ] } },
{ "type": "Feature", "properties": { "ID": "0017645431", "NAME": "SOIN MEDICAL CENTER", "STATE": "OH", "BEDS": 127 }, "geometry": { "type": "Point", "coordinates": [ -84.0631, 39.771 ] } },
{ "type": "Feature", "properties": { "ID": "0001945385", "NAME": "GREENE MEMORIAL HOSPITAL", "STATE": "OH", "BEDS": 49 }, "geometry": { "type": "Point", "coordinates": [ -83.9277, 39.7001 ] } },
{ "type": "Feature", "properties": { "ID": "0129545219", "NAME": "UNIVERSITY OF CINCINNATI MEDICAL CENTER, LLC", "STATE": "OH", "BEDS": 699 }, "geometry": { "type": "Point", "coordinates": [ -84.5037, 39.1384 ] } },
{ "type": "Feature", "properties": { "ID": "0004845840", "NAME": "BLANCHARD VALLEY HOSPITAL", "STATE": "OH", "BEDS": 176 }, "geometry": { "type": "Point", "coordinates": [ -83.6514, 41.0177 ] } },
{ "type": "Feature", "properties": { "ID": "0003943545", "NAME": "HENRY COUNTY HOSPITAL, INC", "STATE": "OH", "BEDS": 31 }, "geometry": { "type": "Point", "coordinates": [ -84.0873, 41.4113 ] } },
{ "type": "Feature", "properties": { "ID": "0007844857", "NAME": "FISHER-TITUS HOSPITAL", "STATE": "OH", "BEDS": 114 }, "geometry": { "type": "Point", "coordinates": [ -82.6042, 41.2257 ] } },
{ "type": "Feature", "properties": { "ID": "0129644094", "NAME": "WINDSOR LAURELWOOD CENTER FOR BEHAVORIAL MEDICINE", "STATE": "OH", "BEDS": 159 }, "geometry": { "type": "Point", "coordinates": [ -81.4336, 41.6247 ] } },
{ "type": "Feature", "properties": { "ID": "0028844094", "NAME": "LAKE WEST HOSPITAL", "STATE": "OH", "BEDS": 267 }, "geometry": { "type": "Point", "coordinates": [ -81.4322, 41.6257 ] } },
{ "type": "Feature", "properties": { "ID": "0007443616", "NAME": "MERCY ST CHARLES HOSPITAL", "STATE": "OH", "BEDS": 410 }, "geometry": { "type": "Point", "coordinates": [ -83.4852, 41.6351 ] } },
{ "type": "Feature", "properties": { "ID": "0006243606", "NAME": "TOLEDO HOSPITAL THE", "STATE": "OH", "BEDS": 792 }, "geometry": { "type": "Point", "coordinates": [ -83.5953, 41.6723 ] } },
{ "type": "Feature", "properties": { "ID": "0008443699", "NAME": "UNIVERSITY OF TOLEDO MEDICAL CENTER", "STATE": "OH", "BEDS": 319 }, "geometry": { "type": "Point", "coordinates": [ -83.616, 41.6188 ] } },
{ "type": "Feature", "properties": { "ID": "0006043140", "NAME": "MADISON COUNTY HOSPITAL INC", "STATE": "OH", "BEDS": 94 }, "geometry": { "type": "Point", "coordinates": [ -83.4543, 39.8926 ] } },
{ "type": "Feature", "properties": { "ID": "0015144512", "NAME": "SURGICAL HOSPITAL AT SOUTHWOODS", "STATE": "OH", "BEDS": 36 }, "geometry": { "type": "Point", "coordinates": [ -80.6556, 41.0155 ] } },
{ "type": "Feature", "properties": { "ID": "0006544254", "NAME": "LODI COMMUNITY HOSPITAL", "STATE": "OH", "BEDS": 20 }, "geometry": { "type": "Point", "coordinates": [ -82.0142, 41.0359 ] } },
{ "type": "Feature", "properties": { "ID": "0004944281", "NAME": "SUMMA WADSWORTH-RITTMAN HOSPITAL", "STATE": "OH", "BEDS": 50 }, "geometry": { "type": "Point", "coordinates": [ -81.7516, 41.0283 ] } },
{ "type": "Feature", "properties": { "ID": "0015645828", "NAME": "MERCER COUNTY JOINT TOWNSHIP COMMUNITY HOSPITAL", "STATE": "OH", "BEDS": 88 }, "geometry": { "type": "Point", "coordinates": [ -84.6389, 40.4808 ] } },
{ "type": "Feature", "properties": { "ID": "0008945373", "NAME": "UPPER VALLEY MEDICAL CENTER", "STATE": "OH", "BEDS": 193 }, "geometry": { "type": "Point", "coordinates": [ -84.2299, 40.0859 ] } },
{ "type": "Feature", "properties": { "ID": "0010645405", "NAME": "GRANDVIEW HOSPITAL & MEDICAL CENTER", "STATE": "OH", "BEDS": 289 }, "geometry": { "type": "Point", "coordinates": [ -84.2022, 39.77 ] } },
{ "type": "Feature", "properties": { "ID": "0009745429", "NAME": "KETTERING MEDICAL CENTER", "STATE": "OH", "BEDS": 456 }, "geometry": { "type": "Point", "coordinates": [ -84.1924, 39.6973 ] } },
{ "type": "Feature", "properties": { "ID": "0128145342", "NAME": "LIFE CARE HOSPITALS OF DAYTON", "STATE": "OH", "BEDS": 44 }, "geometry": { "type": "Point", "coordinates": [ -84.2483, 39.6376 ] } },
{ "type": "Feature", "properties": { "ID": "0127945417", "NAME": "KINDRED HOSPITALS-DAYTON", "STATE": "OH", "BEDS": 67 }, "geometry": { "type": "Point", "coordinates": [ -84.1979, 39.7467 ] } },
{ "type": "Feature", "properties": { "ID": "0008343701", "NAME": "GENESIS HOSPITAL", "STATE": "OH", "BEDS": 321 }, "geometry": { "type": "Point", "coordinates": [ -82.0165, 39.9748 ] } },
{ "type": "Feature", "properties": { "ID": "0007544710", "NAME": "AULTMAN HOSPITAL", "STATE": "OH", "BEDS": 820 }, "geometry": { "type": "Point", "coordinates": [ -81.4031, 40.7973 ] } },
{ "type": "Feature", "properties": { "ID": "0002245891", "NAME": "VAN WERT COUNTY HOSPITAL", "STATE": "OH", "BEDS": 109 }, "geometry": { "type": "Point", "coordinates": [ -84.5788, 40.8506 ] } },
{ "type": "Feature", "properties": { "ID": "0017445005", "NAME": "ATRIUM MEDICAL CENTER", "STATE": "OH", "BEDS": 328 }, "geometry": { "type": "Point", "coordinates": [ -84.3143, 39.4983 ] } },
{ "type": "Feature", "properties": { "ID": "0010445750", "NAME": "MARIETTA MEMORIAL HOSPITAL", "STATE": "OH", "BEDS": 215 }, "geometry": { "type": "Point", "coordinates": [ -81.4642, 39.4317 ] } },
{ "type": "Feature", "properties": { "ID": "0001145242", "NAME": "BETHESDA NORTH", "STATE": "OH", "BEDS": 524 }, "geometry": { "type": "Point", "coordinates": [ -84.3418, 39.252 ] } },
{ "type": "Feature", "properties": { "ID": "0000544256", "NAME": "MEDINA HOSPITAL", "STATE": "OH", "BEDS": 171 }, "geometry": { "type": "Point", "coordinates": [ -81.8383, 41.1385 ] } },
{ "type": "Feature", "properties": { "ID": "0001044501", "NAME": "ST ELIZABETH YOUNGSTOWN HOSPITAL", "STATE": "OH", "BEDS": 626 }, "geometry": { "type": "Point", "coordinates": [ -80.6573, 41.114 ] } },
{ "type": "Feature", "properties": { "ID": "0015944667", "NAME": "AULTMAN ORRVILLE HOSPITAL", "STATE": "OH", "BEDS": 34 }, "geometry": { "type": "Point", "coordinates": [ -81.7637, 40.8322 ] } },
{ "type": "Feature", "properties": { "ID": "0004244691", "NAME": "WOOSTER COMMUNITY HOSPITAL", "STATE": "OH", "BEDS": 150 }, "geometry": { "type": "Point", "coordinates": [ -81.9322, 40.8209 ] } },
{ "type": "Feature", "properties": { "ID": "0002644024", "NAME": "UH GEAUGA MEDICAL CENTER", "STATE": "OH", "BEDS": 225 }, "geometry": { "type": "Point", "coordinates": [ -81.1891, 41.5093 ] } },
{ "type": "Feature", "properties": { "ID": "0016843326", "NAME": "HARDIN MEMORIAL HOSPITAL", "STATE": "OH", "BEDS": 25 }, "geometry": { "type": "Point", "coordinates": [ -83.5959, 40.6466 ] } },
{ "type": "Feature", "properties": { "ID": "0010743210", "NAME": "OHIO STATE UNIVERSITY HOSPITALS", "STATE": "OH", "BEDS": 1106 }, "geometry": { "type": "Point", "coordinates": [ -83.0186, 39.9943 ] } },
{ "type": "Feature", "properties": { "ID": "0009643214", "NAME": "RIVERSIDE METHODIST HOSPITAL", "STATE": "OH", "BEDS": 1059 }, "geometry": { "type": "Point", "coordinates": [ -83.034, 40.0306 ] } },
{ "type": "Feature", "properties": { "ID": "0013343452", "NAME": "H B MAGRUDER MEMORIAL HOSPITAL", "STATE": "OH", "BEDS": 25 }, "geometry": { "type": "Point", "coordinates": [ -82.933, 41.5059 ] } },
{ "type": "Feature", "properties": { "ID": "0004444111", "NAME": "FAIRVIEW HOSPITAL", "STATE": "OH", "BEDS": 516 }, "geometry": { "type": "Point", "coordinates": [ -81.8234, 41.4505 ] } },
{ "type": "Feature", "properties": { "ID": "0007744143", "NAME": "UHHS RICHMOND HEIGHTS HOSPITAL", "STATE": "OH", "BEDS": 213 }, "geometry": { "type": "Point", "coordinates": [ -81.4889, 41.5808 ] } },
{ "type": "Feature", "properties": { "ID": "0006844115", "NAME": "ST VINCENT CHARITY MEDICAL CENTER", "STATE": "OH", "BEDS": 448 }, "geometry": { "type": "Point", "coordinates": [ -81.6731, 41.4959 ] } },
{ "type": "Feature", "properties": { "ID": "0011244146", "NAME": "UHHS BEDFORD MEDICAL CENTER", "STATE": "OH", "BEDS": 88 }, "geometry": { "type": "Point", "coordinates": [ -81.5341, 41.3951 ] } },
{ "type": "Feature", "properties": { "ID": "0016643078", "NAME": "MERCY MEMORIAL HOSPITAL", "STATE": "OH", "BEDS": 8 }, "geometry": { "type": "Point", "coordinates": [ -83.7299, 40.1085 ] } },
{ "type": "Feature", "properties": { "ID": "0016144512", "NAME": "ST ELIZABETH BOARDMAN HEALTH CENTER", "STATE": "OH", "BEDS": 246 }, "geometry": { "type": "Point", "coordinates": [ -80.66, 40.9949 ] } },
{ "type": "Feature", "properties": { "ID": "0006943420", "NAME": "PHYSICIAN'S CHOICE HOSPITAL - FREMONT, LLC", "STATE": "OH", "BEDS": -999 }, "geometry": { "type": "Point", "coordinates": [ -83.1159, 41.3797 ] } },
{ "type": "Feature", "properties": { "ID": "0004744223", "NAME": "SUMMA WESTERN RESERVE HOSPITAL", "STATE": "OH", "BEDS": 272 }, "geometry": { "type": "Point", "coordinates": [ -81.5111, 41.133 ] } },
{ "type": "Feature", "properties": { "ID": "0015844621", "NAME": "TRINITY HOSPITAL TWIN CITY", "STATE": "OH", "BEDS": 25 }, "geometry": { "type": "Point", "coordinates": [ -81.3367, 40.4016 ] } },
{ "type": "Feature", "properties": { "ID": "0122944113", "NAME": "GRACE HOSPITAL", "STATE": "OH", "BEDS": -999 }, "geometry": { "type": "Point", "coordinates": [ -81.6909, 41.4807 ] } },
{ "type": "Feature", "properties": { "ID": "0121843614", "NAME": "ADVANCED SPECIALTY HOSPITAL OF TOLEDO", "STATE": "OH", "BEDS": 40 }, "geometry": { "type": "Point", "coordinates": [ -83.5962, 41.6202 ] } },
{ "type": "Feature", "properties": { "ID": "0125943207", "NAME": "SELECT SPECIALTY HOSPITAL COLUMBUS SOUTH", "STATE": "OH", "BEDS": 43 }, "geometry": { "type": "Point", "coordinates": [ -82.9953, 39.9331 ] } },
{ "type": "Feature", "properties": { "ID": "0128844512", "NAME": "VIBRA HOSPITAL OF MAHONING VALLEY", "STATE": "OH", "BEDS": 45 }, "geometry": { "type": "Point", "coordinates": [ -80.633, 41.0052 ] } },
{ "type": "Feature", "properties": { "ID": "0000000024", "NAME": "88TH MEDICAL GROUP - WRIGHT-PATTERSON AIR FORCE BASE MEDICAL CENTER", "STATE": "OH", "BEDS": 57 }, "geometry": { "type": "Point", "coordinates": [ -84.0374, 39.8053 ] } },
{ "type": "Feature", "properties": { "ID": "0001444890", "NAME": "MERCY WILLARD HOSPITAL", "STATE": "OH", "BEDS": 25 }, "geometry": { "type": "Point", "coordinates": [ -82.7096, 41.0394 ] } },
{ "type": "Feature", "properties": { "ID": "0183043232", "NAME": "MOUNT CARMEL BEHAVIORAL HEALTHCARE LLC", "STATE": "OH", "BEDS": 80 }, "geometry": { "type": "Point", "coordinates": [ -82.8704, 39.9357 ] } },
{ "type": "Feature", "properties": { "ID": "0188444236", "NAME": "ASSURANCE HEALTH HUDSON LLC", "STATE": "OH", "BEDS": 23 }, "geometry": { "type": "Point", "coordinates": [ -81.488, 41.2363 ] } },
{ "type": "Feature", "properties": { "ID": "0191445373", "NAME": "KETTERING HEALTH NETWORK TROY HOSPITAL", "STATE": "OH", "BEDS": 28 }, "geometry": { "type": "Point", "coordinates": [ -84.2097, 40.0432 ] } },
{ "type": "Feature", "properties": { "ID": "0128243953", "NAME": "LIFE LINE HOSPITAL", "STATE": "OH", "BEDS": 36 }, "geometry": { "type": "Point", "coordinates": [ -80.7012, 40.3724 ] } },
{ "type": "Feature", "properties": { "ID": "0123145216", "NAME": "ENCOMPASS HEALTH REHABILITATION HOSPITAL OF CINCINNATI, LLC", "STATE": "OH", "BEDS": 60 }, "geometry": { "type": "Point", "coordinates": [ -84.4802, 39.2128 ] } },
{ "type": "Feature", "properties": { "ID": "0009045238", "NAME": "MERCY HOSPITAL WEST", "STATE": "OH", "BEDS": 156 }, "geometry": { "type": "Point", "coordinates": [ -84.6074, 39.135 ] } },
{ "type": "Feature", "properties": { "ID": "0122744836", "NAME": "EDEN SPRINGS HEALTHCARE LLC", "STATE": "OH", "BEDS": 176 }, "geometry": { "type": "Point", "coordinates": [ -83.0531, 41.2626 ] } },
{ "type": "Feature", "properties": { "ID": "0001545750", "NAME": "SELBY GENERAL HOSPITAL", "STATE": "OH", "BEDS": 25 }, "geometry": { "type": "Point", "coordinates": [ -81.444, 39.4401 ] } },
{ "type": "Feature", "properties": { "ID": "0189344122", "NAME": "LAKE HEALTH BEACHWOOD MEDICAL CENTER", "STATE": "OH", "BEDS": 24 }, "geometry": { "type": "Point", "coordinates": [ -81.499, 41.4649 ] } },
{ "type": "Feature", "properties": { "ID": "0182444321", "NAME": "CLEVELAND CLINIC REHABILITATION HOSPITAL, EDWIN SHAW", "STATE": "OH", "BEDS": 160 }, "geometry": { "type": "Point", "coordinates": [ -81.6623, 41.1367 ] } },
{ "type": "Feature", "properties": { "ID": "0191245069", "NAME": "THE CHRIST HOSPITAL HEALTH NETWORK", "STATE": "OH", "BEDS": -999 }, "geometry": { "type": "Point", "coordinates": [ -84.363, 39.3748 ] } }
]
}
